{
"type": "FeatureCollection",
"name": "POITransportes",
"crs": { "type": "name", "properties": { "name": "urn:ogc:def:crs:OGC:1.3:CRS84" } },
"features": [
{ "type": "Feature", "properties": { "OBJECTID": 1, "IDTIPO": "9010", "COD_SIG": "4", "NOME": "Doca de Santo Amaro", "GlobalID": "529f02a8-f4ce-4f04-9e32-899d41e79329", "Importancia": 43 }, "geometry": { "type": "Point", "coordinates": [ -9.17747605760457, 38.699310698453402 ] } },
{ "type": "Feature", "properties": { "OBJECTID": 2, "IDTIPO": "9010", "COD_SIG": "12", "NOME": "Gare Maritima Rocha do Conde de Obidos", "GlobalID": "af11c82f-9d43-4f36-b33c-108751cf38d7", "Importancia": 43 }, "geometry": { "type": "Point", "coordinates": [ -9.161831088447871, 38.7015679419398 ] } },
{ "type": "Feature", "properties": { "OBJECTID": 3, "IDTIPO": "9010", "COD_SIG": "9", "NOME": "Gare Maritima de Alcantara", "GlobalID": "b9b694d5-1741-46d8-b320-630d6c016695", "Importancia": 43 }, "geometry": { "type": "Point", "coordinates": [ -9.174200725518491, 38.6992945518938 ] } },
{ "type": "Feature", "properties": { "OBJECTID": 4, "IDTIPO": "9010", "COD_SIG": "6", "NOME": "Doca do Poco do Bispo", "GlobalID": "396ffcd6-27ea-4e57-baf8-fc67da92606b", "Importancia": 43 }, "geometry": { "type": "Point", "coordinates": [ -9.0999366704003, 38.740025805650298 ] } },
{ "type": "Feature", "properties": { "OBJECTID": 5, "IDTIPO": "9010", "COD_SIG": "7", "NOME": "Doca dos Olivais", "GlobalID": "1023ea57-f115-479e-8942-10430e31248d", "Importancia": 43 }, "geometry": { "type": "Point", "coordinates": [ -9.09344598853632, 38.764980538580197 ] } },
{ "type": "Feature", "properties": { "OBJECTID": 6, "IDTIPO": "9010", "COD_SIG": "13", "NOME": "Terminal de Cruzeiros Santa Apolónia", "GlobalID": "33cc15f0-ddc2-4636-b243-a36f8ea43495", "Importancia": 43 }, "geometry": { "type": "Point", "coordinates": [ -9.12637326006695, 38.710179074663998 ] } },
{ "type": "Feature", "properties": { "OBJECTID": 7, "IDTIPO": "9010", "COD_SIG": "2", "NOME": "Doca de Alcantara", "GlobalID": "5e79d2e0-7b6f-4d1b-ae95-477103ce3734", "Importancia": 43 }, "geometry": { "type": "Point", "coordinates": [ -9.16778623426533, 38.701649786113798 ] } },
{ "type": "Feature", "properties": { "OBJECTID": 8, "IDTIPO": "9010", "COD_SIG": "10", "NOME": "Gare Maritima de Belem", "GlobalID": "c262b92a-e197-410e-ab71-7bbce6f2832e", "Importancia": 43 }, "geometry": { "type": "Point", "coordinates": [ -9.198547837427521, 38.6949767156269 ] } },
{ "type": "Feature", "properties": { "OBJECTID": 9, "IDTIPO": "9010", "COD_SIG": "1", "NOME": "Doca da Marinha", "GlobalID": "ed3a6962-737e-4d3c-a393-259b4f966e82", "Importancia": 43 }, "geometry": { "type": "Point", "coordinates": [ -9.13081625829191, 38.707926810180403 ] } },
{ "type": "Feature", "properties": { "OBJECTID": 10, "IDTIPO": "9010", "COD_SIG": "5", "NOME": "Doca do Bom Sucesso", "GlobalID": "1870b6d6-cbc3-4444-bd79-4d3034e73ed0", "Importancia": 43 }, "geometry": { "type": "Point", "coordinates": [ -9.21191679096292, 38.693157161513902 ] } },
{ "type": "Feature", "properties": { "OBJECTID": 11, "IDTIPO": "9010", "COD_SIG": "3", "NOME": "Doca de Belem", "GlobalID": "42cb6296-5d83-4d91-baf3-3fedc3d2f1ae", "Importancia": 43 }, "geometry": { "type": "Point", "coordinates": [ -9.204197762660909, 38.694404284543602 ] } },
{ "type": "Feature", "properties": { "OBJECTID": 12, "IDTIPO": "9010", "COD_SIG": "8", "NOME": "Estação Fluvial do Terreiro do Paço", "GlobalID": "fd8d9dd6-efcd-44ff-970b-9d218bd9eca1", "Importancia": 43 }, "geometry": { "type": "Point", "coordinates": [ -9.13334171181312, 38.7068485422853 ] } },
{ "type": "Feature", "properties": { "OBJECTID": 13, "IDTIPO": "9010", "COD_SIG": "11", "NOME": "Gare Maritima do Cais do Sodré", "GlobalID": "f1917981-9f7c-4b87-9fe9-51fb10fce26e", "Importancia": 43 }, "geometry": { "type": "Point", "coordinates": [ -9.145566267372081, 38.705066667346202 ] } },
{ "type": "Feature", "properties": { "OBJECTID": 14, "IDTIPO": "9010", "COD_SIG": "14", "NOME": "Marina Parque das Nações", "GlobalID": "4cd0d65f-4920-41f3-995f-ca108e10d21a", "Importancia": 43 }, "geometry": { "type": "Point", "coordinates": [ -9.0927750467321, 38.755712097954202 ] } },
{ "type": "Feature", "properties": { "OBJECTID": 15, "IDTIPO": "9010", "COD_SIG": "15", "NOME": "Cais da Matinha", "GlobalID": "d8346957-9f70-4857-a329-c941e1330d9f", "Importancia": 43 }, "geometry": { "type": "Point", "coordinates": [ -9.094736894549071, 38.750099780665899 ] } },
{ "type": "Feature", "properties": { "OBJECTID": 16, "IDTIPO": "9010", "COD_SIG": "16", "NOME": "Terminal Multiusos do Poço do Bispo (ETE)", "GlobalID": "ffeaecc1-4639-470f-bab8-7251b4799c82", "Importancia": 43 }, "geometry": { "type": "Point", "coordinates": [ -9.10135827410036, 38.738482228715199 ] } },
{ "type": "Feature", "properties": { "OBJECTID": 17, "IDTIPO": "9010", "COD_SIG": "17", "NOME": "Terminal de Granéis Alimentares do Beato", "GlobalID": "4052a02d-faf3-4508-888d-48fbde44f2cc", "Importancia": 43 }, "geometry": { "type": "Point", "coordinates": [ -9.10205711308577, 38.736513696610899 ] } },
{ "type": "Feature", "properties": { "OBJECTID": 18, "IDTIPO": "9010", "COD_SIG": "18", "NOME": "Terminal Multiusos do Beato", "GlobalID": "a49327df-6579-488b-b058-7ac61d434e12", "Importancia": 43 }, "geometry": { "type": "Point", "coordinates": [ -9.1054374375673, 38.730228191260601 ] } },
{ "type": "Feature", "properties": { "OBJECTID": 19, "IDTIPO": "9010", "COD_SIG": "19", "NOME": "Terminal de Contentores Santa Apolónia(TSA)", "GlobalID": "f85f2b39-224a-47ef-81f9-ae40b79a55aa", "Importancia": 43 }, "geometry": { "type": "Point", "coordinates": [ -9.11035320744819, 38.725134504495401 ] } },
{ "type": "Feature", "properties": { "OBJECTID": 20, "IDTIPO": "9010", "COD_SIG": "20", "NOME": "Terminal Multipurpose (Multiusos) de Lisboa", "GlobalID": "68c088cf-86fb-416a-8fc0-e4a3969c0d01", "Importancia": 43 }, "geometry": { "type": "Point", "coordinates": [ -9.116343857380629, 38.718618517798198 ] } },
{ "type": "Feature", "properties": { "OBJECTID": 21, "IDTIPO": "9010", "COD_SIG": "21", "NOME": "Doca de Santos", "GlobalID": "fddb217a-4680-47a5-bbcd-e8fffb679542", "Importancia": 43 }, "geometry": { "type": "Point", "coordinates": [ -9.15652358213616, 38.704063331807802 ] } },
{ "type": "Feature", "properties": { "OBJECTID": 22, "IDTIPO": "9010", "COD_SIG": "22", "NOME": "Terminal de Contentores de Alcântara (Liscont)", "GlobalID": "7cc2fbae-bc37-49e0-8b1d-f22339ca0bd1", "Importancia": 43 }, "geometry": { "type": "Point", "coordinates": [ -9.1722489325445, 38.699707731890904 ] } },
{ "type": "Feature", "properties": { "OBJECTID": 23, "IDTIPO": "9010", "COD_SIG": "23", "NOME": "Doca de Pedrouços", "GlobalID": "191b60c3-996a-4525-b54c-eef0393d4533", "Importancia": 43 }, "geometry": { "type": "Point", "coordinates": [ -9.226072339005521, 38.694293807110498 ] } }
]
}
